{
"type": "FeatureCollection",
"name": "species",
"crs": { "type": "name", "properties": { "name": "urn:ogc:def:crs:OGC:1.3:CRS84" } },
"features": [
{ "type": "Feature", "properties": { "id": 2, "name": "Zauneidechse", "datum": "2024-06-12", "bemerkung": "Mänchen und Weibchen", "anzahl": 2 }, "geometry": { "type": "Point", "coordinates": [ 11.163306691857523, 48.740010353284035 ] } },
{ "type": "Feature", "properties": { "id": 3, "name": "Balkenschröter", "datum": "2024-06-23", "bemerkung": "Keller Wohnung Prof.-Döllgast Str.", "anzahl": 1 }, "geometry": { "type": "Point", "coordinates": [ 11.177706659200849, 48.740379146269873 ] } },
{ "type": "Feature", "properties": { "id": 1, "name": "Blindschleiche", "datum": "2024-06-23", "bemerkung": null, "anzahl": 1 }, "geometry": { "type": "Point", "coordinates": [ 11.123089156438605, 48.74080830143734 ] } },
{ "type": "Feature", "properties": { "id": 50, "name": "Seefrosch", "datum": "2024-08-06", "bemerkung": null, "anzahl": 1 }, "geometry": { "type": "Point", "coordinates": [ 11.102031413575636, 48.753212538819525 ] } },
{ "type": "Feature", "properties": { "id": 51, "name": "Bergmolch ", "datum": "2024-08-06", "bemerkung": "In der Sickergrube", "anzahl": 2 }, "geometry": { "type": "Point", "coordinates": [ 11.177892421760045, 48.740347282059325 ] } },
{ "type": "Feature", "properties": { "id": 54, "name": "Zauneidechse ", "datum": "2024-08-07", "bemerkung": "Juvenil", "anzahl": 1 }, "geometry": { "type": "Point", "coordinates": [ 11.119115778890841, 48.774066867820224 ] } },
{ "type": "Feature", "properties": { "id": 52, "name": "Blindschleiche ", "datum": "2024-08-07", "bemerkung": "Auf dem Weg", "anzahl": 1 }, "geometry": { "type": "Point", "coordinates": [ 11.127326800325864, 48.739598872507706 ] } },
{ "type": "Feature", "properties": { "id": 53, "name": "Ringelnatter", "datum": "2024-08-07", "bemerkung": "Im Wasser", "anzahl": 1 }, "geometry": { "type": "Point", "coordinates": [ 11.147012131525274, 48.753206022738354 ] } },
{ "type": "Feature", "properties": { "id": 57, "name": "Springfrosch ", "datum": "2024-08-13", "bemerkung": null, "anzahl": 1 }, "geometry": { "type": "Point", "coordinates": [ 11.146233439040927, 48.773232691787747 ] } },
{ "type": "Feature", "properties": { "id": 58, "name": "Ringelnatter ", "datum": "2024-08-04", "bemerkung": "Auf dem Weg", "anzahl": 1 }, "geometry": { "type": "Point", "coordinates": [ 11.110839041403805, 48.738282370627864 ] } },
{ "type": "Feature", "properties": { "id": 49, "name": "Zauneidechse", "datum": "2024-08-03", "bemerkung": "Jungtier", "anzahl": 1 }, "geometry": { "type": "Point", "coordinates": [ 11.118873222115711, 48.773987621417568 ] } }
]
}
